{
"type": "FeatureCollection",
"name": "dmv_locations",
"crs": { "type": "name", "properties": { "name": "urn:ogc:def:crs:OGC:1.3:CRS84" } },
"features": [
{ "type": "Feature", "properties": { "place": "Long Beach", "latitude": "33.803700", "longitude": "-118.149400", "url": "https://www.dmv.ca.gov/portal/field-office/long-beach/", "address": "3700 East Willow Street", "hours": "Mo,Tu,Th,Fr 08:00-17:00,We 09:00-17:00", "services": [ "Kiosk Available" ], "city": " Long Beach", "state": "CA", "zip": "90815", "name": "Los Angeles County" }, "geometry": { "type": "Point", "coordinates": [ -118.1494, 33.8037 ] } },
{ "type": "Feature", "properties": { "place": "Los Angeles", "latitude": "34.018200", "longitude": "-118.278700", "url": "https://www.dmv.ca.gov/portal/field-office/los-angeles/", "address": "3615 S Hope Street", "hours": "Mo,Tu,Th,Fr 08:00-17:00,We 09:00-17:00", "services": [ "Kiosk Available" ], "city": " Los Angeles", "state": "CA", "zip": "90007", "name": "Los Angeles County" }, "geometry": { "type": "Point", "coordinates": [ -118.2787, 34.0182 ] } },
{ "type": "Feature", "properties": { "place": "Los Angeles Metro IBC", "latitude": "34.104660", "longitude": "-117.873720", "url": "https://www.dmv.ca.gov/portal/field-office/los-angeles-metro-ibc/", "address": "1365 North Grand Avenue", "hours": "Mo,Tu,Th,Fr 07:00-16:00,We 08:00-16:00", "services": [ ], "city": "", "state": "", "zip": null, "name": "Los Angeles County" }, "geometry": { "type": "Point", "coordinates": [ -117.87372, 34.10466 ] } },
{ "type": "Feature", "properties": { "place": "Lincoln Park", "latitude": "34.067300", "longitude": "-118.203500", "url": "https://www.dmv.ca.gov/portal/field-office/lincoln-park/", "address": "3529 N Mission Road", "hours": "Mo,Tu,Th,Fr 08:00-17:00,We 09:00-17:00", "services": [ "Kiosk Available" ], "city": " Los Angeles", "state": "CA", "zip": "90031", "name": "Los Angeles County" }, "geometry": { "type": "Point", "coordinates": [ -118.2035, 34.0673 ] } },
{ "type": "Feature", "properties": { "place": "West Hollywood", "latitude": "34.088257", "longitude": "-118.345865", "url": "https://www.dmv.ca.gov/portal/field-office/west-hollywood/", "address": "936 N Formosa Ave", "hours": "Mo,Tu,Th,Fr 08:00-17:00,We 09:00-17:00", "services": [ "Kiosk Available" ], "city": " West Hollywood", "state": "CA", "zip": "90046", "name": "Los Angeles County" }, "geometry": { "type": "Point", "coordinates": [ -118.345865, 34.088257 ] } },
{ "type": "Feature", "properties": { "place": "Hollywood", "latitude": "34.085300", "longitude": "-118.329900", "url": "https://www.dmv.ca.gov/portal/field-office/hollywood/", "address": "803 Cole Avenue", "hours": "Mo,Tu,Th,Fr 08:00-17:00,We 09:00-17:00", "services": [ ], "city": " Hollywood", "state": "CA", "zip": "90038", "name": "Los Angeles County" }, "geometry": { "type": "Point", "coordinates": [ -118.3299, 34.0853 ] } },
{ "type": "Feature", "properties": { "place": "Glendale", "latitude": "34.166700", "longitude": "-118.283300", "url": "https://www.dmv.ca.gov/portal/field-office/glendale/", "address": "1335 W Glenoaks Boulevard", "hours": "Mo,Tu,Th,Fr 08:00-17:00,We 09:00-17:00", "services": [ "Kiosk Available" ], "city": " Glendale", "state": "CA", "zip": "91201", "name": "Los Angeles County" }, "geometry": { "type": "Point", "coordinates": [ -118.2833, 34.1667 ] } },
{ "type": "Feature", "properties": { "place": "Montebello", "latitude": "34.019400", "longitude": "-118.122700", "url": "https://www.dmv.ca.gov/portal/field-office/montebello/", "address": "424 N Wilcox Avenue", "hours": "Mo,Tu,Th,Fr 08:00-17:00,We 09:00-17:00", "services": [ "Kiosk Available" ], "city": " Montebello", "state": "CA", "zip": "90640", "name": "Los Angeles County" }, "geometry": { "type": "Point", "coordinates": [ -118.1227, 34.0194 ] } },
{ "type": "Feature", "properties": { "place": "Bell Gardens", "latitude": "33.970100", "longitude": "-118.149100", "url": "https://www.dmv.ca.gov/portal/field-office/bell-gardens/", "address": "6801 South Garfield", "hours": "Mo,Tu,Th,Fr 08:00-17:00,We 09:00-17:00", "services": [ "Kiosk Available" ], "city": " Bell Gardens", "state": "CA", "zip": "90201", "name": "Los Angeles County" }, "geometry": { "type": "Point", "coordinates": [ -118.1491, 33.9701 ] } },
{ "type": "Feature", "properties": { "place": "Inglewood", "latitude": "33.970142", "longitude": "-118.357099", "url": "https://www.dmv.ca.gov/portal/field-office/inglewood/", "address": "621 N La Brea Ave", "hours": "Mo,Tu,Th,Fr 08:00-17:00,We 09:00-17:00", "services": [ "Kiosk Available" ], "city": " Inglewood", "state": "CA", "zip": "90302", "name": "Los Angeles County" }, "geometry": { "type": "Point", "coordinates": [ -118.357099, 33.970142 ] } },
{ "type": "Feature", "properties": { "place": "Pasadena", "latitude": "34.145200", "longitude": "-118.074200", "url": "https://www.dmv.ca.gov/portal/field-office/pasadena/", "address": "49 S Rosemead Boulevard", "hours": "Mo,Tu,Th,Fr 08:00-17:00,We 09:00-17:00", "services": [ "Kiosk Available" ], "city": " Pasadena", "state": "CA", "zip": "91107", "name": "Los Angeles County" }, "geometry": { "type": "Point", "coordinates": [ -118.0742, 34.1452 ] } },
{ "type": "Feature", "properties": { "place": "Culver City", "latitude": "34.002309", "longitude": "-118.415368", "url": "https://www.dmv.ca.gov/portal/field-office/culver-city/", "address": "11400 W Washington Blvd", "hours": "Mo,Tu,Th,Fr 08:00-17:00,We 09:00-17:00", "services": [ "Kiosk Available" ], "city": " Culver City", "state": "CA", "zip": "90066", "name": "Los Angeles County" }, "geometry": { "type": "Point", "coordinates": [ -118.415368, 34.002309 ] } },
{ "type": "Feature", "properties": { "place": "El Monte", "latitude": "34.080477", "longitude": "-118.044722", "url": "https://www.dmv.ca.gov/portal/field-office/el-monte/", "address": "4000 Arden Drive", "hours": "Mo,Tu,Th,Fr 08:00-17:00,We 09:00-17:00", "services": [ ], "city": " El Monte", "state": "CA", "zip": "91731", "name": "Los Angeles County" }, "geometry": { "type": "Point", "coordinates": [ -118.044722, 34.080477 ] } },
{ "type": "Feature", "properties": { "place": "Santa Monica", "latitude": "34.028000", "longitude": "-118.474500", "url": "https://www.dmv.ca.gov/portal/field-office/santa-monica/", "address": "2235 Colorado Avenue", "hours": "Mo,Tu,Th,Fr 08:00-17:00,We 09:00-17:00", "services": [ "Kiosk Available" ], "city": " Santa Monica", "state": "CA", "zip": "90404", "name": "Los Angeles County" }, "geometry": { "type": "Point", "coordinates": [ -118.4745, 34.028 ] } },
{ "type": "Feature", "properties": { "place": "Hawthorne", "latitude": "33.916400", "longitude": "-118.337300", "url": "https://www.dmv.ca.gov/portal/field-office/hawthorne/", "address": "3700 W El Segundo Boulevard", "hours": "Mo,Tu,Th,Fr 08:00-17:00,We 09:00-17:00", "services": [ "Kiosk Available" ], "city": " Hawthorne", "state": "CA", "zip": "90250", "name": "Los Angeles County" }, "geometry": { "type": "Point", "coordinates": [ -118.3373, 33.9164 ] } },
{ "type": "Feature", "properties": { "place": "Gardena Commercial Drive Test Center", "latitude": "33.897043", "longitude": "-118.265943", "url": "https://www.dmv.ca.gov/portal/field-office/gardena-commercial-drive-test-center/", "address": "14825 S Avalon Blvd", "hours": "Mo,Tu,Th,Fr 07:00-16:00,We 08:00-16:00", "services": [ ], "city": " Gardena", "state": "CA", "zip": "90248", "name": "Los Angeles County" }, "geometry": { "type": "Point", "coordinates": [ -118.265943, 33.897043 ] } },
{ "type": "Feature", "properties": { "place": "Whittier", "latitude": "33.952800", "longitude": "-118.043200", "url": "https://www.dmv.ca.gov/portal/field-office/whittier/", "address": "9338 S Painter Avenue", "hours": "Mo,Tu,Th,Fr 08:00-17:00,We 09:00-17:00", "services": [ "Kiosk Available" ], "city": " Whittier", "state": "CA", "zip": "90605", "name": "Los Angeles County" }, "geometry": { "type": "Point", "coordinates": [ -118.0432, 33.9528 ] } },
{ "type": "Feature", "properties": { "place": "Bellflower", "latitude": "33.873631", "longitude": "-118.131195", "url": "https://www.dmv.ca.gov/portal/field-office/bellflower/", "address": "9520 Artesia Blvd", "hours": "Mo,Tu,Th,Fr 08:00-17:00,We 09:00-17:00", "services": [ "Kiosk Available" ], "city": " Bellflower", "state": "CA", "zip": "90706", "name": "Los Angeles County" }, "geometry": { "type": "Point", "coordinates": [ -118.131195, 33.873631 ] } },
{ "type": "Feature", "properties": { "place": "Compton", "latitude": "33.876500", "longitude": "-118.215400", "url": "https://www.dmv.ca.gov/portal/field-office/compton/", "address": "2111 South Santa Fe Avenue", "hours": "Mo,Tu,Th,Fr 08:00-17:00,We 09:00-17:00", "services": [ "Kiosk Available" ], "city": " Compton", "state": "CA", "zip": "90221", "name": "Los Angeles County" }, "geometry": { "type": "Point", "coordinates": [ -118.2154, 33.8765 ] } },
{ "type": "Feature", "properties": { "place": "Torrance", "latitude": "33.827900", "longitude": "-118.311300", "url": "https://www.dmv.ca.gov/portal/field-office/torrance/", "address": "1785 W 220th Street", "hours": "Mo,Tu,Th,Fr 08:00-17:00,We 09:00-17:00", "services": [ "Kiosk Available" ], "city": " Torrance", "state": "CA", "zip": "90501", "name": "Los Angeles County" }, "geometry": { "type": "Point", "coordinates": [ -118.3113, 33.8279 ] } },
{ "type": "Feature", "properties": { "place": "San Pedro", "latitude": "33.758800", "longitude": "-118.292600", "url": "https://www.dmv.ca.gov/portal/field-office/san-pedro/", "address": "1511 N Gaffey Street", "hours": "Mo,Tu,Th,Fr 08:00-17:00,We 09:00-17:00", "services": [ "Kiosk Available" ], "city": " San Pedro", "state": "CA", "zip": "90731", "name": "Los Angeles County" }, "geometry": { "type": "Point", "coordinates": [ -118.2926, 33.7588 ] } },
{ "type": "Feature", "properties": { "place": "Winnetka", "latitude": "34.201000", "longitude": "-118.584600", "url": "https://www.dmv.ca.gov/portal/field-office/winnetka/", "address": "20725 Sherman Way", "hours": "Mo,Tu,Th,Fr 08:00-17:00,We 09:00-17:00", "services": [ "Kiosk Available" ], "city": " Winnetka", "state": "CA", "zip": "91306", "name": "Los Angeles County" }, "geometry": { "type": "Point", "coordinates": [ -118.5846, 34.201 ] } },
{ "type": "Feature", "properties": { "place": "Winnetka IBC", "latitude": "34.20148", "longitude": "-118.58478", "url": "https://www.dmv.ca.gov/portal/field-office/winnetka-ibc/", "address": "20725 Sherman Way", "hours": "Mo,Tu,Th,Fr 08:00-17:00,We 09:00-17:00", "services": [ ], "city": " Winnetka", "state": "CA", "zip": "91306", "name": "Los Angeles County" }, "geometry": { "type": "Point", "coordinates": [ -118.58478, 34.20148 ] } },
{ "type": "Feature", "properties": { "place": "Thousand Oaks", "latitude": "34.211300", "longitude": "-118.845000", "url": "https://www.dmv.ca.gov/portal/field-office/thousand-oaks/", "address": "1810 E Avenida De Los Arboles", "hours": "Mo,Tu,Th,Fr 08:00-17:00,We 09:00-17:00", "services": [ "Kiosk Available" ], "city": " Thousand Oaks", "state": "CA", "zip": "91362", "name": "Ventura County" }, "geometry": { "type": "Point", "coordinates": [ -118.845, 34.2113 ] } },
{ "type": "Feature", "properties": { "place": "Simi Valley", "latitude": "34.286400", "longitude": "-118.723400", "url": "https://www.dmv.ca.gov/portal/field-office/simi-valley/", "address": "3855 D - Alamo Street", "hours": "Mo,Tu,Th,Fr 08:00-17:00,We 09:00-17:00", "services": [ ], "city": " Simi Valley", "state": "CA", "zip": "93063", "name": "Ventura County" }, "geometry": { "type": "Point", "coordinates": [ -118.7234, 34.2864 ] } },
{ "type": "Feature", "properties": { "place": "Van Nuys", "latitude": "34.193900", "longitude": "-118.458200", "url": "https://www.dmv.ca.gov/portal/field-office/van-nuys/", "address": "14920 Vanowen Street", "hours": "Mo,Tu,Th,Fr 08:00-17:00,We 09:00-17:00", "services": [ "Kiosk Available" ], "city": " Van Nuys", "state": "CA", "zip": "91405", "name": "Los Angeles County" }, "geometry": { "type": "Point", "coordinates": [ -118.4582, 34.1939 ] } },
{ "type": "Feature", "properties": { "place": "Arleta", "latitude": "34.249224", "longitude": "-118.445215", "url": "https://www.dmv.ca.gov/portal/field-office/arleta/", "address": "14400 Van Nuys Blvd", "hours": "Mo,Tu,Th,Fr 08:00-17:00,We 09:00-17:00", "services": [ "Kiosk Available" ], "city": " Arleta", "state": "CA", "zip": "91331", "name": "Los Angeles County" }, "geometry": { "type": "Point", "coordinates": [ -118.445215, 34.249224 ] } },
{ "type": "Feature", "properties": { "place": "West Covina", "latitude": "34.061000", "longitude": "-117.931600", "url": "https://www.dmv.ca.gov/portal/field-office/west-covina/", "address": "800 So Glendora Avenue", "hours": "Mo,Tu,Th,Fr 08:00-17:00,We 09:00-17:00", "services": [ "Kiosk Available" ], "city": " West Covina", "state": "CA", "zip": "91790", "name": "Los Angeles County" }, "geometry": { "type": "Point", "coordinates": [ -117.9316, 34.061 ] } },
{ "type": "Feature", "properties": { "place": "Fullerton", "latitude": "33.866600", "longitude": "-117.939900", "url": "https://www.dmv.ca.gov/portal/field-office/fullerton/", "address": "909 W Valencia Drive", "hours": "Mo,Tu,Th,Fr 08:00-17:00,We 09:00-17:00", "services": [ "Kiosk Available" ], "city": " Fullerton", "state": "CA", "zip": "92832", "name": "Orange County" }, "geometry": { "type": "Point", "coordinates": [ -117.9399, 33.8666 ] } },
{ "type": "Feature", "properties": { "place": "Placentia IBC", "latitude": "33.90499", "longitude": "-117.8412", "url": "https://www.dmv.ca.gov/portal/field-office/placentia-ibc/", "address": "2390 Rose Drive", "hours": "Mo,Tu,Th,Fr 07:00-16:00,We 08:00-16:00", "services": [ ], "city": " Placentia", "state": "CA", "zip": "92870", "name": "Orange County" }, "geometry": { "type": "Point", "coordinates": [ -117.8412, 33.90499 ] } },
{ "type": "Feature", "properties": { "place": "Westminster", "latitude": "33.764300", "longitude": "-117.998200", "url": "https://www.dmv.ca.gov/portal/field-office/westminster/", "address": "13700 Hoover Street", "hours": "Mo,Tu,Th,Fr 08:00-17:00,We 09:00-17:00", "services": [ "Kiosk Available" ], "city": " Westminster", "state": "CA", "zip": "92683", "name": "Orange County" }, "geometry": { "type": "Point", "coordinates": [ -117.9982, 33.7643 ] } },
{ "type": "Feature", "properties": { "place": "Santa Ana", "latitude": "33.745400", "longitude": "-117.850600", "url": "https://www.dmv.ca.gov/portal/field-office/santa-ana/", "address": "1330 E First Street", "hours": "Mo,Tu,Th,Fr 08:00-17:00,We 09:00-17:00", "services": [ "Kiosk Available" ], "city": " Santa Ana", "state": "CA", "zip": "92701", "name": "Orange County" }, "geometry": { "type": "Point", "coordinates": [ -117.8506, 33.7454 ] } },
{ "type": "Feature", "properties": { "place": "Costa Mesa", "latitude": "33.643500", "longitude": "-117.925900", "url": "https://www.dmv.ca.gov/portal/field-office/costa-mesa/", "address": "650 W 19th Street", "hours": "Mo,Tu,Th,Fr 08:00-17:00,We 09:00-17:00", "services": [ "Kiosk Available" ], "city": " Costa Mesa", "state": "CA", "zip": "92627", "name": "Orange County" }, "geometry": { "type": "Point", "coordinates": [ -117.9259, 33.6435 ] } },
{ "type": "Feature", "properties": { "place": "San Marcos", "latitude": "33.140079", "longitude": "-117.149742", "url": "https://www.dmv.ca.gov/portal/field-office/san-marcos/", "address": "590 Rancheros Dr", "hours": "Mo,Tu,Th,Fr 08:00-17:00,We 09:00-17:00", "services": [ "Kiosk Available" ], "city": " San Marcos", "state": "CA", "zip": "92069", "name": "San Diego County" }, "geometry": { "type": "Point", "coordinates": [ -117.149742, 33.140079 ] } },
{ "type": "Feature", "properties": { "place": "San Marcos IBC", "latitude": "33.14068", "longitude": "-117.1474", "url": "https://www.dmv.ca.gov/portal/field-office/san-marcos-ibc/", "address": "590 Rancheros Drive", "hours": "Mo,Tu,Th,Fr 08:00-17:00,We 09:00-17:00", "services": [ ], "city": " San Marcos", "state": "CA", "zip": "92078", "name": "San Diego County" }, "geometry": { "type": "Point", "coordinates": [ -117.1474, 33.14068 ] } },
{ "type": "Feature", "properties": { "place": "Newhall", "latitude": "34.379500", "longitude": "-118.532500", "url": "https://www.dmv.ca.gov/portal/field-office/newhall/", "address": "24427 Newhall Avenue", "hours": "Mo,Tu,Th,Fr 08:00-17:00,We 09:00-17:00", "services": [ "Kiosk Available" ], "city": " Newhall", "state": "CA", "zip": "91321", "name": "Los Angeles County" }, "geometry": { "type": "Point", "coordinates": [ -118.5325, 34.3795 ] } },
{ "type": "Feature", "properties": { "place": "Oxnard", "latitude": "34.162900", "longitude": "-119.177500", "url": "https://www.dmv.ca.gov/portal/field-office/oxnard/", "address": "4050 Saviers Road", "hours": "Mo,Tu,Th,Fr 08:00-17:00,We 09:00-17:00", "services": [ "Kiosk Available" ], "city": " Oxnard", "state": "CA", "zip": "93033", "name": "Ventura County" }, "geometry": { "type": "Point", "coordinates": [ -119.1775, 34.1629 ] } },
{ "type": "Feature", "properties": { "place": "Santa Clara", "latitude": "37.350082", "longitude": "-121.993984", "url": "https://www.dmv.ca.gov/portal/field-office/santa-clara/", "address": "3665 Flora Vista Ave", "hours": "Mo,Tu,Th,Fr 08:00-17:00,We 09:00-17:00", "services": [ "Kiosk Available" ], "city": " Santa Clara", "state": "CA", "zip": "95051", "name": "Santa Clara County" }, "geometry": { "type": "Point", "coordinates": [ -121.993984, 37.350082 ] } },
{ "type": "Feature", "properties": { "place": "Rancho Cucamonga", "latitude": "34.096900", "longitude": "-117.601600", "url": "https://www.dmv.ca.gov/portal/field-office/rancho-cucamonga/", "address": "8629 Hellman Avenue", "hours": "Mo,Tu,Th,Fr 08:00-17:00,We 09:00-17:00", "services": [ "Kiosk Available" ], "city": " Rancho Cucamonga", "state": "CA", "zip": "91730", "name": "San Bernardino County" }, "geometry": { "type": "Point", "coordinates": [ -117.6016, 34.0969 ] } },
{ "type": "Feature", "properties": { "place": "Pomona", "latitude": "34.042400", "longitude": "-117.749500", "url": "https://www.dmv.ca.gov/portal/field-office/pomona/", "address": "1600 S Garey Avenue", "hours": "Mo,Tu,Th,Fr 08:00-17:00,We 09:00-17:00", "services": [ "Kiosk Available" ], "city": " Pomona", "state": "CA", "zip": "91766", "name": "Los Angeles County" }, "geometry": { "type": "Point", "coordinates": [ -117.7495, 34.0424 ] } },
{ "type": "Feature", "properties": { "place": "Norco", "latitude": "33.928300", "longitude": "-117.561400", "url": "https://www.dmv.ca.gov/portal/field-office/norco/", "address": "3201 Horseless Carriage Drive", "hours": "Mo,Tu,Th,Fr 08:00-17:00,We 09:00-17:00", "services": [ "Kiosk Available" ], "city": " Norco", "state": "CA", "zip": "92860", "name": "Riverside County" }, "geometry": { "type": "Point", "coordinates": [ -117.5614, 33.9283 ] } },
{ "type": "Feature", "properties": { "place": "Fontana Commercial Drive Test Center", "latitude": "34.067682", "longitude": "-117.461396", "url": "https://www.dmv.ca.gov/portal/field-office/fontana-commercial-drive-test-center/", "address": "10207 Poplar Ave", "hours": "Mo,Tu,Th,Fr 07:00-16:00,We 08:00-16:00", "services": [ ], "city": " Fontana", "state": "CA", "zip": "92335", "name": "San Bernardino County" }, "geometry": { "type": "Point", "coordinates": [ -117.461396, 34.067682 ] } },
{ "type": "Feature", "properties": { "place": "King City", "latitude": "36.222399", "longitude": "-121.127305", "url": "https://www.dmv.ca.gov/portal/field-office/king-city/", "address": "101 E San Antonio Dr", "hours": "Mo,Tu,Th,Fr 08:00-17:00,We 09:00-17:00", "services": [ ], "city": " King City", "state": "CA", "zip": "93930", "name": "Monterey County" }, "geometry": { "type": "Point", "coordinates": [ -121.127305, 36.222399 ] } },
{ "type": "Feature", "properties": { "place": "Daly City", "latitude": "37.689000", "longitude": "-122.472800", "url": "https://www.dmv.ca.gov/portal/field-office/daly-city/", "address": "1500 Sullivan Avenue", "hours": "Mo,Tu,Th,Fr 08:00-17:00,We 09:00-17:00", "services": [ "Kiosk Available" ], "city": " Daly City", "state": "CA", "zip": "94015", "name": "San Mateo County" }, "geometry": { "type": "Point", "coordinates": [ -122.4728, 37.689 ] } },
{ "type": "Feature", "properties": { "place": "Redwood City", "latitude": "37.492600", "longitude": "-122.229000", "url": "https://www.dmv.ca.gov/portal/field-office/redwood-city/", "address": "300 Brewster Avenue", "hours": "Mo,Tu,Th,Fr 08:00-17:00,We 09:00-17:00", "services": [ "Kiosk Available" ], "city": " Redwood City", "state": "CA", "zip": "94063", "name": "San Mateo County" }, "geometry": { "type": "Point", "coordinates": [ -122.229, 37.4926 ] } },
{ "type": "Feature", "properties": { "place": "Yuba City", "latitude": "39.143900", "longitude": "-121.643300", "url": "https://www.dmv.ca.gov/portal/field-office/yuba-city/", "address": "1570 Poole Boulevard", "hours": "Mo,Tu,Th,Fr 08:00-17:00,We 09:00-17:00", "services": [ "Kiosk Available" ], "city": " Yuba City", "state": "CA", "zip": "95993", "name": "Sutter County" }, "geometry": { "type": "Point", "coordinates": [ -121.6433, 39.1439 ] } },
{ "type": "Feature", "properties": { "place": "Crescent City", "latitude": "41.771900", "longitude": "-124.184700", "url": "https://www.dmv.ca.gov/portal/field-office/crescent-city/", "address": "1475 Parkway Drive", "hours": "Mo,Fr 08:00-17:00,We 09:00-17:00", "services": [ ], "city": " Crescent City", "state": "CA", "zip": "95531", "name": "Del Norte County" }, "geometry": { "type": "Point", "coordinates": [ -124.1847, 41.7719 ] } },
{ "type": "Feature", "properties": { "place": "Fontana", "latitude": "34.107862", "longitude": "-117.476956", "url": "https://www.dmv.ca.gov/portal/field-office/fontana/", "address": "8026 Hemlock Ave", "hours": "Mo,Tu,Th,Fr 08:00-17:00,We 09:00-17:00", "services": [ "Kiosk Available" ], "city": " Fontana", "state": "CA", "zip": "92336", "name": "San Bernardino County" }, "geometry": { "type": "Point", "coordinates": [ -117.476956, 34.107862 ] } },
{ "type": "Feature", "properties": { "place": "Rancho San Diego Industry Business Center", "latitude": "32.756415", "longitude": "-116.927344", "url": "https://www.dmv.ca.gov/portal/field-office/rancho-san-diego-industry-business-center/", "address": "1530 Hilton Head Rd.", "hours": "Mo,Tu,Th,Fr 07:00-16:00,We 08:00-16:00", "services": [ ], "city": " El Cajon", "state": "CA", "zip": "92019", "name": "San Diego County" }, "geometry": { "type": "Point", "coordinates": [ -116.927344, 32.756415 ] } },
{ "type": "Feature", "properties": { "place": "Rancho San Diego IBC", "latitude": "32.74525", "longitude": "-116.92667", "url": "https://www.dmv.ca.gov/portal/field-office/rancho-san-diego-ibc/", "address": "1530 Hilton Head Rd", "hours": "Mo,Tu,Th,Fr 07:00-16:00,We 08:00-16:00", "services": [ ], "city": " El Cajon", "state": "CA", "zip": "92019", "name": "San Diego County" }, "geometry": { "type": "Point", "coordinates": [ -116.92667, 32.74525 ] } },
{ "type": "Feature", "properties": { "place": "Chula Vista", "latitude": "32.652500", "longitude": "-117.086400", "url": "https://www.dmv.ca.gov/portal/field-office/chula-vista/", "address": "30 N Glover Avenue", "hours": "Mo,Tu,Th,Fr 08:00-17:00,We 09:00-17:00", "services": [ "Kiosk Available" ], "city": " Chula Vista", "state": "CA", "zip": "91910", "name": "San Diego County" }, "geometry": { "type": "Point", "coordinates": [ -117.0864, 32.6525 ] } },
{ "type": "Feature", "properties": { "place": "San Ysidro", "latitude": "32.569300", "longitude": "-117.005100", "url": "https://www.dmv.ca.gov/portal/field-office/san-ysidro/", "address": "6111 Business Center Court", "hours": "Mo,Tu,Th,Fr 08:00-17:00,We 09:00-17:00", "services": [ "Kiosk Available" ], "city": " San Diego", "state": "CA", "zip": "92154", "name": "San Diego County" }, "geometry": { "type": "Point", "coordinates": [ -117.0051, 32.5693 ] } },
{ "type": "Feature", "properties": { "place": "San Diego", "latitude": "32.750300", "longitude": "-117.149000", "url": "https://www.dmv.ca.gov/portal/field-office/san-diego/", "address": "3960 Normal Street", "hours": "Mo,Tu,Th,Fr 08:00-17:00,We 09:00-17:00", "services": [ ], "city": " San Diego", "state": "CA", "zip": "92103", "name": "San Diego County" }, "geometry": { "type": "Point", "coordinates": [ -117.149, 32.7503 ] } },
{ "type": "Feature", "properties": { "place": "El Cajon", "latitude": "32.816800", "longitude": "-116.959700", "url": "https://www.dmv.ca.gov/portal/field-office/el-cajon/", "address": "1450 Graves Avenue", "hours": "Mo,Tu,Th,Fr 08:00-17:00,We 09:00-17:00", "services": [ "Kiosk Available" ], "city": " El Cajon", "state": "CA", "zip": "92021", "name": "San Diego County" }, "geometry": { "type": "Point", "coordinates": [ -116.9597, 32.8168 ] } },
{ "type": "Feature", "properties": { "place": "El Centro", "latitude": "32.794800", "longitude": "-115.569400", "url": "https://www.dmv.ca.gov/portal/field-office/el-centro/", "address": "233 N Imperial Avenue", "hours": "Mo,Tu,Th,Fr 08:00-17:00,We 09:00-17:00", "services": [ ], "city": " El Centro", "state": "CA", "zip": "92243", "name": "Imperial County" }, "geometry": { "type": "Point", "coordinates": [ -115.5694, 32.7948 ] } },
{ "type": "Feature", "properties": { "place": "Oceanside", "latitude": "33.183400", "longitude": "-117.289000", "url": "https://www.dmv.ca.gov/portal/field-office/oceanside/", "address": "4005 Plaza Drive", "hours": "Mo,Tu,Th,Fr 08:00-17:00,We 09:00-17:00", "services": [ "Kiosk Available" ], "city": " Oceanside", "state": "CA", "zip": "92056", "name": "San Diego County" }, "geometry": { "type": "Point", "coordinates": [ -117.289, 33.1834 ] } },
{ "type": "Feature", "properties": { "place": "Temecula", "latitude": "33.506200", "longitude": "-117.161300", "url": "https://www.dmv.ca.gov/portal/field-office/temecula/", "address": "27851 Diaz Road", "hours": "Mo,Tu,Th,Fr 08:00-17:00,We 09:00-17:00", "services": [ ], "city": " Temecula", "state": "CA", "zip": "92590", "name": "Riverside County" }, "geometry": { "type": "Point", "coordinates": [ -117.1613, 33.5062 ] } },
{ "type": "Feature", "properties": { "place": "Brawley", "latitude": "32.9790193", "longitude": "-115.5453627", "url": "https://www.dmv.ca.gov/portal/field-office/brawley/", "address": "173 W Main St.", "hours": "Mo,Tu,Th,Fr 08:00-17:00,We 09:00-17:00", "services": [ ], "city": " Brawley", "state": "CA", "zip": "92227", "name": "Imperial County" }, "geometry": { "type": "Point", "coordinates": [ -115.5453627, 32.9790193 ] } },
{ "type": "Feature", "properties": { "place": "Indio", "latitude": "33.726220", "longitude": "-116.215742", "url": "https://www.dmv.ca.gov/portal/field-office/indio/", "address": "44480 Jackson St", "hours": "Mo,Tu,Th,Fr 08:00-17:00,We 09:00-17:00", "services": [ "Kiosk Available" ], "city": " Indio", "state": "CA", "zip": "92201", "name": "Riverside County" }, "geometry": { "type": "Point", "coordinates": [ -116.215742, 33.72622 ] } },
{ "type": "Feature", "properties": { "place": "Poway", "latitude": "32.960200", "longitude": "-117.040700", "url": "https://www.dmv.ca.gov/portal/field-office/poway/", "address": "13461 Community Road", "hours": "Mo,Tu,Th,Fr 08:00-17:00,We 09:00-17:00", "services": [ ], "city": " Poway", "state": "CA", "zip": "92064", "name": "San Diego County" }, "geometry": { "type": "Point", "coordinates": [ -117.0407, 32.9602 ] } },
{ "type": "Feature", "properties": { "place": "Murrieta Express", "latitude": "33.599450", "longitude": "-117.175960", "url": "https://www.dmv.ca.gov/portal/field-office/murrieta-express/", "address": "27890 Clinton Keith Road", "hours": "Mo,Tu,Th,Fr 08:00-17:00,We 09:00-17:00", "services": [ "Kiosk Available" ], "city": "", "state": "", "zip": null, "name": "Riverside County" }, "geometry": { "type": "Point", "coordinates": [ -117.17596, 33.59945 ] } },
{ "type": "Feature", "properties": { "place": "Laguna Hills", "latitude": "33.620900", "longitude": "-117.731600", "url": "https://www.dmv.ca.gov/portal/field-office/laguna-hills/", "address": "23535 Moulton Parkway", "hours": "Mo,Tu,Th,Fr 08:00-17:00,We 09:00-17:00", "services": [ ], "city": " Laguna Hills", "state": "CA", "zip": "92653", "name": "Orange County" }, "geometry": { "type": "Point", "coordinates": [ -117.7316, 33.6209 ] } },
{ "type": "Feature", "properties": { "place": "San Clemente", "latitude": "33.442800", "longitude": "-117.642800", "url": "https://www.dmv.ca.gov/portal/field-office/san-clemente/", "address": "2727 Via Cascadita", "hours": "Mo,Tu,Th,Fr 08:00-17:00,We 09:00-17:00", "services": [ ], "city": " San Clemente", "state": "CA", "zip": "92672", "name": "Orange County" }, "geometry": { "type": "Point", "coordinates": [ -117.6428, 33.4428 ] } },
{ "type": "Feature", "properties": { "place": "San Luis Obispo", "latitude": "35.257500", "longitude": "-120.669500", "url": "https://www.dmv.ca.gov/portal/field-office/san-luis-obispo/", "address": "3190 S Higuera Street", "hours": "Mo,Tu,Th,Fr 08:00-17:00,We 09:00-17:00", "services": [ "Kiosk Available" ], "city": " San Luis Obispo", "state": "CA", "zip": "93401", "name": "San Luis Obispo County" }, "geometry": { "type": "Point", "coordinates": [ -120.6695, 35.2575 ] } },
{ "type": "Feature", "properties": { "place": "San Diego Clairemont", "latitude": "32.823500", "longitude": "-117.183200", "url": "https://www.dmv.ca.gov/portal/field-office/san-diego-clairemont/", "address": "4375 Derrick Drive", "hours": "Mo,Tu,Th,Fr 08:00-17:00,We 09:00-17:00", "services": [ "Kiosk Available" ], "city": " San Diego", "state": "CA", "zip": "92117", "name": "San Diego County" }, "geometry": { "type": "Point", "coordinates": [ -117.1832, 32.8235 ] } },
{ "type": "Feature", "properties": { "place": "Palm Desert", "latitude": "33.782800", "longitude": "-116.357600", "url": "https://www.dmv.ca.gov/portal/field-office/palm-desert/", "address": "74-740 Technology Drive", "hours": "Mo,Tu,Th,Fr 08:00-17:00,We 09:00-17:00", "services": [ "Kiosk Available" ], "city": " Palm Desert", "state": "CA", "zip": "92211", "name": "Riverside County" }, "geometry": { "type": "Point", "coordinates": [ -116.3576, 33.7828 ] } },
{ "type": "Feature", "properties": { "place": "Blythe", "latitude": "33.604200", "longitude": "-114.596200", "url": "https://www.dmv.ca.gov/portal/field-office/blythe/", "address": "430 S Broadway", "hours": "Tu,Th 08:00-17:00", "services": [ ], "city": " Blythe", "state": "CA", "zip": "92225", "name": "Riverside County" }, "geometry": { "type": "Point", "coordinates": [ -114.5962, 33.6042 ] } },
{ "type": "Feature", "properties": { "place": "Palm Springs", "latitude": "33.836600", "longitude": "-116.518700", "url": "https://www.dmv.ca.gov/portal/field-office/palm-springs/", "address": "950 N Farrell Drive", "hours": "Mo,Tu,Th,Fr 08:00-17:00,We 09:00-17:00", "services": [ ], "city": " Palm Springs", "state": "CA", "zip": "92262", "name": "Riverside County" }, "geometry": { "type": "Point", "coordinates": [ -116.5187, 33.8366 ] } },
{ "type": "Feature", "properties": { "place": "Twentynine Palms", "latitude": "34.199775", "longitude": "-116.054016", "url": "https://www.dmv.ca.gov/portal/field-office/twentynine-palms/", "address": "3668 Adobe Road G-J", "hours": "Mo,Tu,Th,Fr 08:00-17:00,We 09:00-17:00", "services": [ ], "city": " Twentynine Palms", "state": "CA", "zip": "92277", "name": "San Bernardino County" }, "geometry": { "type": "Point", "coordinates": [ -116.054016, 34.199775 ] } },
{ "type": "Feature", "properties": { "place": "Needles", "latitude": "34.825497", "longitude": "-114.596291", "url": "https://www.dmv.ca.gov/portal/field-office/needles/", "address": "1040 E Broadway St", "hours": "Mo,Fr 08:00-17:00,We 09:00-17:00", "services": [ ], "city": " Needles", "state": "CA", "zip": "92363", "name": "San Bernardino County" }, "geometry": { "type": "Point", "coordinates": [ -114.596291, 34.825497 ] } },
{ "type": "Feature", "properties": { "place": "Victorville", "latitude": "34.520500", "longitude": "-117.305500", "url": "https://www.dmv.ca.gov/portal/field-office/victorville/", "address": "14855 Corta Drive", "hours": "Mo,Tu,Th,Fr 08:00-17:00,We 09:00-17:00", "services": [ ], "city": " Victorville", "state": "CA", "zip": "92395", "name": "San Bernardino County" }, "geometry": { "type": "Point", "coordinates": [ -117.3055, 34.5205 ] } },
{ "type": "Feature", "properties": { "place": "Barstow", "latitude": "34.888119", "longitude": "-117.022119", "url": "https://www.dmv.ca.gov/portal/field-office/barstow/", "address": "528 E Virginia Way", "hours": "Mo,Tu,Th,Fr 08:00-17:00,We 09:00-17:00", "services": [ ], "city": " Barstow", "state": "CA", "zip": "92311", "name": "San Bernardino County" }, "geometry": { "type": "Point", "coordinates": [ -117.022119, 34.888119 ] } },
{ "type": "Feature", "properties": { "place": "San Bernardino IBC", "latitude": "34.06777", "longitude": "-117.27467", "url": "https://www.dmv.ca.gov/portal/field-office/san-bernardino-ibc/", "address": "473 East Carnegie Dr Ste. 125", "hours": "Mo,Tu,Th,Fr 07:00-16:00,We 08:00-16:00", "services": [ ], "city": " San Bernardino", "state": "CA", "zip": "92408", "name": "San Bernardino County" }, "geometry": { "type": "Point", "coordinates": [ -117.27467, 34.06777 ] } },
{ "type": "Feature", "properties": { "place": "Riverside", "latitude": "33.957500", "longitude": "-117.396600", "url": "https://www.dmv.ca.gov/portal/field-office/riverside/", "address": "6280 Brockton Avenue", "hours": "Mo,Tu,Th,Fr 08:00-17:00,We 09:00-17:00", "services": [ "Kiosk Available" ], "city": " Riverside", "state": "CA", "zip": "92506", "name": "Riverside County" }, "geometry": { "type": "Point", "coordinates": [ -117.3966, 33.9575 ] } },
{ "type": "Feature", "properties": { "place": "San Bernardino", "latitude": "34.123400", "longitude": "-117.278800", "url": "https://www.dmv.ca.gov/portal/field-office/san-bernardino/", "address": "1310 N Waterman Avenue", "hours": "Mo,Tu,Th,Fr 08:00-17:00,We 09:00-17:00", "services": [ "Kiosk Available" ], "city": " San Bernardino", "state": "CA", "zip": "92404", "name": "San Bernardino County" }, "geometry": { "type": "Point", "coordinates": [ -117.2788, 34.1234 ] } },
{ "type": "Feature", "properties": { "place": "Riverside East", "latitude": "33.934500", "longitude": "-117.299200", "url": "https://www.dmv.ca.gov/portal/field-office/riverside-east/", "address": "6425 Sycamore Canyon Blvd", "hours": "Mo,Tu,Th,Fr 08:00-17:00,We 09:00-17:00", "services": [ "Kiosk Available" ], "city": " Riverside", "state": "CA", "zip": "92507", "name": "Riverside County" }, "geometry": { "type": "Point", "coordinates": [ -117.2992, 33.9345 ] } },
{ "type": "Feature", "properties": { "place": "Redlands", "latitude": "34.070300", "longitude": "-117.211100", "url": "https://www.dmv.ca.gov/portal/field-office/redlands/", "address": "1659 W Lugonia Avenue", "hours": "Mo,Tu,Th,Fr 08:00-17:00,We 09:00-17:00", "services": [ ], "city": " Redlands", "state": "CA", "zip": "92374", "name": "San Bernardino County" }, "geometry": { "type": "Point", "coordinates": [ -117.2111, 34.0703 ] } },
{ "type": "Feature", "properties": { "place": "Ridgecrest", "latitude": "35.648927", "longitude": "-117.679474", "url": "https://www.dmv.ca.gov/portal/field-office/ridgecrest/", "address": "540A Perdew Avenue", "hours": "Mo,Tu,Th,Fr 08:00-17:00,We 09:00-17:00", "services": [ ], "city": " Ridgecrest", "state": "CA", "zip": "93555", "name": "Kern County" }, "geometry": { "type": "Point", "coordinates": [ -117.679474, 35.648927 ] } },
{ "type": "Feature", "properties": { "place": "Hemet", "latitude": "33.727792", "longitude": "-116.970199", "url": "https://www.dmv.ca.gov/portal/field-office/hemet/", "address": "1200 S State St", "hours": "Mo,Tu,Th,Fr 08:00-17:00,We 09:00-17:00", "services": [ "Kiosk Available" ], "city": " Hemet", "state": "CA", "zip": "92543", "name": "Riverside County" }, "geometry": { "type": "Point", "coordinates": [ -116.970199, 33.727792 ] } },
{ "type": "Feature", "properties": { "place": "Ventura", "latitude": "34.256700", "longitude": "-119.236300", "url": "https://www.dmv.ca.gov/portal/field-office/ventura/", "address": "4260 Market Street", "hours": "Mo,Tu,Th,Fr 08:00-17:00,We 09:00-17:00", "services": [ "Kiosk Available" ], "city": " Ventura", "state": "CA", "zip": "93003", "name": "Ventura County" }, "geometry": { "type": "Point", "coordinates": [ -119.2363, 34.2567 ] } },
{ "type": "Feature", "properties": { "place": "Santa Barbara", "latitude": "34.412900", "longitude": "-119.701100", "url": "https://www.dmv.ca.gov/portal/field-office/santa-barbara/", "address": "535 Castillo Street", "hours": "Mo,Tu,Th,Fr 08:00-17:00,We 09:00-17:00", "services": [ ], "city": " Santa Barbara", "state": "CA", "zip": "93101", "name": "Santa Barbara County" }, "geometry": { "type": "Point", "coordinates": [ -119.7011, 34.4129 ] } },
{ "type": "Feature", "properties": { "place": "Santa Paula", "latitude": "34.344500", "longitude": "-119.075600", "url": "https://www.dmv.ca.gov/portal/field-office/santa-paula/", "address": "250 W Harvard Boulevard A", "hours": "Mo,Tu,Th,Fr 08:00-17:00,We 09:00-17:00", "services": [ ], "city": " Santa Paula", "state": "CA", "zip": "93060", "name": "Ventura County" }, "geometry": { "type": "Point", "coordinates": [ -119.0756, 34.3445 ] } },
{ "type": "Feature", "properties": { "place": "Goleta", "latitude": "34.428500", "longitude": "-119.876500", "url": "https://www.dmv.ca.gov/portal/field-office/goleta/", "address": "7127 Hollister Avenue Suite 24/26", "hours": "Mo,Tu,Th,Fr 08:00-17:00,We 09:00-17:00", "services": [ ], "city": " Goleta", "state": "CA", "zip": "93117", "name": "Santa Barbara County" }, "geometry": { "type": "Point", "coordinates": [ -119.8765, 34.4285 ] } },
{ "type": "Feature", "properties": { "place": "Delano", "latitude": "35.765100", "longitude": "-119.243700", "url": "https://www.dmv.ca.gov/portal/field-office/delano/", "address": "631 Jefferson Street", "hours": "Mo,Tu,Th,Fr 08:00-17:00,We 09:00-17:00", "services": [ "Kiosk Available" ], "city": " Delano", "state": "CA", "zip": "93215", "name": "Kern County" }, "geometry": { "type": "Point", "coordinates": [ -119.2437, 35.7651 ] } },
{ "type": "Feature", "properties": { "place": "Hanford", "latitude": "36.313400", "longitude": "-119.644400", "url": "https://www.dmv.ca.gov/portal/field-office/hanford/", "address": "701 W Hanford Armona Road (corner of W Armona)", "hours": "Mo,Tu,Th,Fr 08:00-17:00,We 09:00-17:00", "services": [ "Kiosk Available" ], "city": " Hanford", "state": "CA", "zip": "93230", "name": "Kings County" }, "geometry": { "type": "Point", "coordinates": [ -119.6444, 36.3134 ] } },
{ "type": "Feature", "properties": { "place": "Arvin", "latitude": "35.210800", "longitude": "-118.833200", "url": "https://www.dmv.ca.gov/portal/field-office/arvin/", "address": "317 Campus Dr", "hours": "Mo,Tu,Th,Fr 08:00-17:00,We 09:00-17:00", "services": [ ], "city": " Arvin", "state": "CA", "zip": "93203", "name": "Kern County" }, "geometry": { "type": "Point", "coordinates": [ -118.8332, 35.2108 ] } },
{ "type": "Feature", "properties": { "place": "Lake Isabella", "latitude": "35.616825", "longitude": "-118.478236", "url": "https://www.dmv.ca.gov/portal/field-office/lake-isabella/", "address": "5520 Lake Isabella Road G-1", "hours": "Tu,Th 08:00-17:00", "services": [ ], "city": " Lake Isabella", "state": "CA", "zip": "93240", "name": "Kern County" }, "geometry": { "type": "Point", "coordinates": [ -118.478236, 35.616825 ] } },
{ "type": "Feature", "properties": { "place": "Shafter", "latitude": "35.503400", "longitude": "-119.272500", "url": "https://www.dmv.ca.gov/portal/field-office/shafter/", "address": "548 Walker Street", "hours": "Mo,Tu,Th,Fr 08:00-17:00,We 09:00-17:00", "services": [ ], "city": " Shafter", "state": "CA", "zip": "93263", "name": "Kern County" }, "geometry": { "type": "Point", "coordinates": [ -119.2725, 35.5034 ] } },
{ "type": "Feature", "properties": { "place": "Taft", "latitude": "35.139321", "longitude": "-119.453756", "url": "https://www.dmv.ca.gov/portal/field-office/taft/", "address": "165 Center Street", "hours": "Tu,Th 08:00-17:00", "services": [ ], "city": " Taft", "state": "CA", "zip": "93268", "name": "Kern County" }, "geometry": { "type": "Point", "coordinates": [ -119.453756, 35.139321 ] } },
{ "type": "Feature", "properties": { "place": "Porterville", "latitude": "36.063400", "longitude": "-119.009400", "url": "https://www.dmv.ca.gov/portal/field-office/porterville/", "address": "329 E Olive Avenue", "hours": "Mo,Tu,Th,Fr 08:00-17:00,We 09:00-17:00", "services": [ "Kiosk Available" ], "city": " Porterville", "state": "CA", "zip": "93257", "name": "Tulare County" }, "geometry": { "type": "Point", "coordinates": [ -119.0094, 36.0634 ] } },
{ "type": "Feature", "properties": { "place": "Coalinga", "latitude": "36.143000", "longitude": "-120.357200", "url": "https://www.dmv.ca.gov/portal/field-office/coalinga/", "address": "406 East Elm Avenue", "hours": "Tu,Th 08:00-17:00", "services": [ ], "city": " Coalinga", "state": "CA", "zip": "93210", "name": "Fresno County" }, "geometry": { "type": "Point", "coordinates": [ -120.3572, 36.143 ] } },
{ "type": "Feature", "properties": { "place": "Bakersfield", "latitude": "35.388300", "longitude": "-119.022500", "url": "https://www.dmv.ca.gov/portal/field-office/bakersfield/", "address": "3120 F Street", "hours": "Mo,Tu,Th,Fr 08:00-17:00,We 09:00-17:00", "services": [ "Kiosk Available" ], "city": " Bakersfield", "state": "CA", "zip": "93301", "name": "Kern County" }, "geometry": { "type": "Point", "coordinates": [ -119.0225, 35.3883 ] } },
{ "type": "Feature", "properties": { "place": "Bakersfield IBC", "latitude": "35.31368", "longitude": "-119.06675", "url": "https://www.dmv.ca.gov/portal/field-office/bakersfield-ibc/", "address": "5800 District Blvd", "hours": "Mo,Tu,Th,Fr 07:00-16:00,We 08:00-16:00", "services": [ ], "city": "", "state": "", "zip": null, "name": "Kern County" }, "geometry": { "type": "Point", "coordinates": [ -119.06675, 35.31368 ] } },
{ "type": "Feature", "properties": { "place": "Bakersfield Southwest", "latitude": "35.317031", "longitude": "-119.079704", "url": "https://www.dmv.ca.gov/portal/field-office/bakersfield-southwest/", "address": "7000 Schirra Ct", "hours": "Mo,Tu,Th,Fr 08:00-17:00,We 09:00-17:00", "services": [ "Kiosk Available" ], "city": " Bakersfield", "state": "CA", "zip": "93313", "name": "Kern County" }, "geometry": { "type": "Point", "coordinates": [ -119.079704, 35.317031 ] } },
{ "type": "Feature", "properties": { "place": "Visalia", "latitude": "36.330200", "longitude": "-119.273900", "url": "https://www.dmv.ca.gov/portal/field-office/visalia/", "address": "1711 East Main Street", "hours": "Mo,Tu,Th,Fr 08:00-17:00,We 09:00-17:00", "services": [ ], "city": " Visalia", "state": "CA", "zip": "93292", "name": "Tulare County" }, "geometry": { "type": "Point", "coordinates": [ -119.2739, 36.3302 ] } },
{ "type": "Feature", "properties": { "place": "Tulare", "latitude": "36.213400", "longitude": "-119.346400", "url": "https://www.dmv.ca.gov/portal/field-office/tulare/", "address": "274 E Cross Avenue", "hours": "Mo,Tu,Th,Fr 08:00-17:00,We 09:00-17:00", "services": [ "Kiosk Available" ], "city": " Tulare", "state": "CA", "zip": "93274", "name": "Tulare County" }, "geometry": { "type": "Point", "coordinates": [ -119.3464, 36.2134 ] } },
{ "type": "Feature", "properties": { "place": "Reedley", "latitude": "36.590100", "longitude": "-119.443400", "url": "https://www.dmv.ca.gov/portal/field-office/reedley/", "address": "558 E Dinuba Avenue", "hours": "Mo,Tu,Th,Fr 08:00-17:00,We 09:00-17:00", "services": [ ], "city": " Reedley", "state": "CA", "zip": "93654", "name": "Fresno County" }, "geometry": { "type": "Point", "coordinates": [ -119.4434, 36.5901 ] } },
{ "type": "Feature", "properties": { "place": "Paso Robles", "latitude": "35.623300", "longitude": "-120.689800", "url": "https://www.dmv.ca.gov/portal/field-office/paso-robles/", "address": "841 Park Street", "hours": "Mo,Tu,Th,Fr 08:00-17:00,We 09:00-17:00", "services": [ ], "city": " Paso Robles", "state": "CA", "zip": "93446", "name": "San Luis Obispo County" }, "geometry": { "type": "Point", "coordinates": [ -120.6898, 35.6233 ] } },
{ "type": "Feature", "properties": { "place": "Lompoc", "latitude": "34.663552", "longitude": "-120.458380", "url": "https://www.dmv.ca.gov/portal/field-office/lompoc/", "address": "1601 N H St", "hours": "Mo,Tu,Th,Fr 08:00-17:00,We 09:00-17:00", "services": [ ], "city": " Lompoc", "state": "CA", "zip": "93436", "name": "Santa Barbara County" }, "geometry": { "type": "Point", "coordinates": [ -120.45838, 34.663552 ] } },
{ "type": "Feature", "properties": { "place": "Santa Maria", "latitude": "34.947500", "longitude": "-120.434700", "url": "https://www.dmv.ca.gov/portal/field-office/santa-maria/", "address": "523 S McClelland Street", "hours": "Mo,Tu,Th,Fr 08:00-17:00,We 09:00-17:00", "services": [ ], "city": " Santa Maria", "state": "CA", "zip": "93454", "name": "Santa Barbara County" }, "geometry": { "type": "Point", "coordinates": [ -120.4347, 34.9475 ] } },
{ "type": "Feature", "properties": { "place": "Bishop", "latitude": "37.361300", "longitude": "-118.407800", "url": "https://www.dmv.ca.gov/portal/field-office/bishop/", "address": "1115 West Line Street", "hours": "Mo,Fr 08:00-17:00,We 09:00-17:00", "services": [ ], "city": " Bishop", "state": "CA", "zip": "93514", "name": "Inyo County" }, "geometry": { "type": "Point", "coordinates": [ -118.4078, 37.3613 ] } },
{ "type": "Feature", "properties": { "place": "Lancaster", "latitude": "34.654836", "longitude": "-118.146912", "url": "https://www.dmv.ca.gov/portal/field-office/lancaster/", "address": "721 W Ave L6", "hours": "Mo,Tu,Th,Fr 08:00-17:00,We 09:00-17:00", "services": [ "Kiosk Available" ], "city": " Lancaster", "state": "CA", "zip": "93535", "name": "Los Angeles County" }, "geometry": { "type": "Point", "coordinates": [ -118.146912, 34.654836 ] } },
{ "type": "Feature", "properties": { "place": "Mariposa", "latitude": "37.494628", "longitude": "-119.968383", "url": "https://www.dmv.ca.gov/portal/field-office/mariposa/", "address": "5264 Highway 49-North", "hours": "Tu,Th 08:00-17:00", "services": [ ], "city": " Mariposa", "state": "CA", "zip": "95338", "name": "Mariposa County" }, "geometry": { "type": "Point", "coordinates": [ -119.968383, 37.494628 ] } },
{ "type": "Feature", "properties": { "place": "Clovis", "latitude": "36.809500", "longitude": "-119.676600", "url": "https://www.dmv.ca.gov/portal/field-office/clovis/", "address": "2103 Shaw Avenue", "hours": "Mo,Tu,Th,Fr 08:00-17:00,We 09:00-17:00", "services": [ "Kiosk Available" ], "city": " Clovis", "state": "CA", "zip": "93611", "name": "Fresno County" }, "geometry": { "type": "Point", "coordinates": [ -119.6766, 36.8095 ] } },
{ "type": "Feature", "properties": { "place": "Madera", "latitude": "36.950100", "longitude": "-120.071700", "url": "https://www.dmv.ca.gov/portal/field-office/madera/", "address": "1206 Maple Street", "hours": "Mo,Tu,Th,Fr 08:00-17:00,We 09:00-17:00", "services": [ "Kiosk Available" ], "city": " Madera", "state": "CA", "zip": "93637", "name": "Madera County" }, "geometry": { "type": "Point", "coordinates": [ -120.0717, 36.9501 ] } },
{ "type": "Feature", "properties": { "place": "Fresno", "latitude": "36.757500", "longitude": "-119.819400", "url": "https://www.dmv.ca.gov/portal/field-office/fresno/", "address": "655 W Olive Avenue", "hours": "Mo,Tu,Th,Fr 08:00-17:00,We 09:00-17:00", "services": [ "Kiosk Available" ], "city": " Fresno", "state": "CA", "zip": "93728", "name": "Fresno County" }, "geometry": { "type": "Point", "coordinates": [ -119.8194, 36.7575 ] } },
{ "type": "Feature", "properties": { "place": "Fresno North", "latitude": "36.831000", "longitude": "-119.790100", "url": "https://www.dmv.ca.gov/portal/field-office/fresno-north/", "address": "6420 N Blackstone Avenue", "hours": "Mo,Tu,Th,Fr 08:00-17:00,We 09:00-17:00", "services": [ "Kiosk Available" ], "city": " Fresno", "state": "CA", "zip": "93710", "name": "Fresno County" }, "geometry": { "type": "Point", "coordinates": [ -119.7901, 36.831 ] } },
{ "type": "Feature", "properties": { "place": "Fresno IBC", "latitude": "36.83051", "longitude": "-119.78867", "url": "https://www.dmv.ca.gov/portal/field-office/fresno-ibc/", "address": "6420 North Blackstone Ave.", "hours": "Mo,Tu,Th,Fr 07:00-16:00,We 08:00-16:00", "services": [ ], "city": " Fresno", "state": "CA", "zip": "93710", "name": "Fresno County" }, "geometry": { "type": "Point", "coordinates": [ -119.78867, 36.83051 ] } },
{ "type": "Feature", "properties": { "place": "Mendota", "latitude": "36.754100", "longitude": "-120.382600", "url": "https://www.dmv.ca.gov/portal/field-office/mendota/", "address": "655 Quince Street", "hours": "Th,Fr 09:00-16:00", "services": [ ], "city": " Mendota", "state": "CA", "zip": "93640", "name": "Fresno County" }, "geometry": { "type": "Point", "coordinates": [ -120.3826, 36.7541 ] } },
{ "type": "Feature", "properties": { "place": "Fresno Commercial Drive Test Center", "latitude": "36.692246", "longitude": "-119.778029", "url": "https://www.dmv.ca.gov/portal/field-office/fresno-commercial-drive-test-center/", "address": "735 E North Ave", "hours": "Mo,Tu,Th,Fr 07:00-16:00,We 08:00-16:00", "services": [ ], "city": " Fresno", "state": "CA", "zip": "93725", "name": "Fresno County" }, "geometry": { "type": "Point", "coordinates": [ -119.778029, 36.692246 ] } },
{ "type": "Feature", "properties": { "place": "Merced", "latitude": "37.300700", "longitude": "-120.498700", "url": "https://www.dmv.ca.gov/portal/field-office/merced/", "address": "1313 W 12th Street", "hours": "Mo,Tu,Th,Fr 08:00-17:00,We 09:00-17:00", "services": [ "Kiosk Available" ], "city": " Merced", "state": "CA", "zip": "95340", "name": "Merced County" }, "geometry": { "type": "Point", "coordinates": [ -120.4987, 37.3007 ] } },
{ "type": "Feature", "properties": { "place": "Los Banos", "latitude": "37.059800", "longitude": "-120.863000", "url": "https://www.dmv.ca.gov/portal/field-office/los-banos/", "address": "814 West L Street", "hours": "Mo,Tu,Th,Fr 08:00-17:00,We 09:00-17:00", "services": [ "Kiosk Available" ], "city": " Los Banos", "state": "CA", "zip": "93635", "name": "Merced County" }, "geometry": { "type": "Point", "coordinates": [ -120.863, 37.0598 ] } },
{ "type": "Feature", "properties": { "place": "Salinas Commercial Drive Test Center", "latitude": "36.66003", "longitude": "-121.63036", "url": "https://www.dmv.ca.gov/portal/field-office/salinas-commercial-drive-test-center/", "address": "838 Vertin Ave", "hours": "Mo,Tu,Th,Fr 07:00-16:00,We 09:00-16:00", "services": [ ], "city": " Salinas", "state": "CA", "zip": "93901", "name": "Monterey County" }, "geometry": { "type": "Point", "coordinates": [ -121.63036, 36.66003 ] } },
{ "type": "Feature", "properties": { "place": "Salinas", "latitude": "36.697900", "longitude": "-121.647800", "url": "https://www.dmv.ca.gov/portal/field-office/salinas/", "address": "260 E Laurel Drive", "hours": "Mo,Tu,Th,Fr 08:00-17:00,We 09:00-17:00", "services": [ "Kiosk Available" ], "city": " Salinas", "state": "CA", "zip": "93906", "name": "Monterey County" }, "geometry": { "type": "Point", "coordinates": [ -121.6478, 36.6979 ] } },
{ "type": "Feature", "properties": { "place": "Watsonville", "latitude": "36.927000", "longitude": "-121.768200", "url": "https://www.dmv.ca.gov/portal/field-office/watsonville/", "address": "90 Alta Vista Avenue", "hours": "Mo,Tu,Th,Fr 08:00-17:00,We 09:00-17:00", "services": [ ], "city": " Watsonville", "state": "CA", "zip": "95076", "name": "Santa Cruz County" }, "geometry": { "type": "Point", "coordinates": [ -121.7682, 36.927 ] } },
{ "type": "Feature", "properties": { "place": "Seaside", "latitude": "36.602656", "longitude": "-121.853174", "url": "https://www.dmv.ca.gov/portal/field-office/seaside/", "address": "1180 Canyon Del Rey Blvd", "hours": "Mo,Tu,Th,Fr 08:00-17:00,We 09:00-17:00", "services": [ "Kiosk Available" ], "city": " Seaside", "state": "CA", "zip": "93955", "name": "Monterey County" }, "geometry": { "type": "Point", "coordinates": [ -121.853174, 36.602656 ] } },
{ "type": "Feature", "properties": { "place": "Hollister", "latitude": "36.858174", "longitude": "-121.399748", "url": "https://www.dmv.ca.gov/portal/field-office/hollister/", "address": "80 N Sally Street", "hours": "Tu,Th,Fr 08:00-17:00", "services": [ ], "city": " Hollister", "state": "CA", "zip": "95023", "name": "San Benito County" }, "geometry": { "type": "Point", "coordinates": [ -121.399748, 36.858174 ] } },
{ "type": "Feature", "properties": { "place": "San Mateo", "latitude": "37.579200", "longitude": "-122.323500", "url": "https://www.dmv.ca.gov/portal/field-office/san-mateo/", "address": "425 N Amphlett Boulevard", "hours": "Mo,Tu,Th,Fr 08:00-17:00,We 09:00-17:00", "services": [ ], "city": " San Mateo", "state": "CA", "zip": "94401", "name": "San Mateo County" }, "geometry": { "type": "Point", "coordinates": [ -122.3235, 37.5792 ] } },
{ "type": "Feature", "properties": { "place": "San Francisco", "latitude": "37.773600", "longitude": "-122.440400", "url": "https://www.dmv.ca.gov/portal/field-office/san-francisco/", "address": "1377 Fell Street", "hours": "Mo,Tu,Th,Fr 08:00-17:00,We 09:00-17:00", "services": [ "Kiosk Available" ], "city": " San Francisco", "state": "CA", "zip": "94117", "name": "San Francisco County" }, "geometry": { "type": "Point", "coordinates": [ -122.4404, 37.7736 ] } },
{ "type": "Feature", "properties": { "place": "Oakland Coliseum", "latitude": "37.739673", "longitude": "-122.193223", "url": "https://www.dmv.ca.gov/portal/field-office/oakland-coliseum/", "address": "501 85th Ave", "hours": "Mo,Tu,Th,Fr 08:00-17:00,We 09:00-17:00", "services": [ "Kiosk Available" ], "city": " Oakland", "state": "CA", "zip": "94621", "name": "Alameda County" }, "geometry": { "type": "Point", "coordinates": [ -122.193223, 37.739673 ] } },
{ "type": "Feature", "properties": { "place": "Mountain View Industry Business Center", "latitude": "37.400610", "longitude": "-122.107810", "url": "https://www.dmv.ca.gov/portal/field-office/mountain-view-industry-business-center/", "address": "595 Showers Drive", "hours": "Mo,Tu,Th,Fr 07:00-16:00,We 08:00-16:00", "services": [ ], "city": " Mountain View", "state": "CA", "zip": "94040", "name": "Santa Clara County" }, "geometry": { "type": "Point", "coordinates": [ -122.10781, 37.40061 ] } },
{ "type": "Feature", "properties": { "place": "Mountain View IBC", "latitude": "37.40057", "longitude": "-122.10771", "url": "https://www.dmv.ca.gov/portal/field-office/mountain-view-ibc/", "address": "595 Showers Dr.", "hours": "Mo,Tu,Th,Fr 07:00-16:00,We 08:00-16:00", "services": [ ], "city": " Mountain View", "state": "CA", "zip": "94040", "name": "Santa Clara County" }, "geometry": { "type": "Point", "coordinates": [ -122.10771, 37.40057 ] } },
{ "type": "Feature", "properties": { "place": "Los Gatos", "latitude": "37.234000", "longitude": "-121.978100", "url": "https://www.dmv.ca.gov/portal/field-office/los-gatos/", "address": "600 N Santa Cruz Avenue", "hours": "Mo,Tu,Th,Fr 08:00-17:00,We 09:00-17:00", "services": [ ], "city": " Los Gatos", "state": "CA", "zip": "95030", "name": "Santa Clara County" }, "geometry": { "type": "Point", "coordinates": [ -121.9781, 37.234 ] } },
{ "type": "Feature", "properties": { "place": "San Jose", "latitude": "37.315000", "longitude": "-121.876300", "url": "https://www.dmv.ca.gov/portal/field-office/san-jose/", "address": "111 W Alma Avenue", "hours": "Mo,Tu,Th,Fr 08:00-17:00,We 09:00-17:00", "services": [ "Kiosk Available" ], "city": " San Jose", "state": "CA", "zip": "95110", "name": "Santa Clara County" }, "geometry": { "type": "Point", "coordinates": [ -121.8763, 37.315 ] } },
{ "type": "Feature", "properties": { "place": "Capitola", "latitude": "36.973200", "longitude": "-121.962700", "url": "https://www.dmv.ca.gov/portal/field-office/capitola/", "address": "4200 Capitola Road", "hours": "Mo,Tu,Th,Fr 08:00-17:00,We 09:00-17:00", "services": [ ], "city": " Capitola", "state": "CA", "zip": "95010", "name": "Santa Cruz County" }, "geometry": { "type": "Point", "coordinates": [ -121.9627, 36.9732 ] } },
{ "type": "Feature", "properties": { "place": "Fremont", "latitude": "37.553100", "longitude": "-122.007300", "url": "https://www.dmv.ca.gov/portal/field-office/fremont/", "address": "4287 Central Avenue", "hours": "Mo,Tu,Th,Fr 08:00-17:00,We 09:00-17:00", "services": [ ], "city": " Fremont", "state": "CA", "zip": "94536", "name": "Alameda County" }, "geometry": { "type": "Point", "coordinates": [ -122.0073, 37.5531 ] } },
{ "type": "Feature", "properties": { "place": "West Sacramento Commercial Drive Test Center", "latitude": "38.577000", "longitude": "-121.544000", "url": "https://www.dmv.ca.gov/portal/field-office/west-sacramento-commercial-drive-test-center/", "address": "2528 Evergreen Avenue", "hours": "Mo,Tu,Th,Fr 07:00-16:00,We 08:00-16:00", "services": [ ], "city": " West Sacramento", "state": "CA", "zip": "95691", "name": "Yolo County" }, "geometry": { "type": "Point", "coordinates": [ -121.544, 38.577 ] } },
{ "type": "Feature", "properties": { "place": "Sacramento", "latitude": "38.546100", "longitude": "-121.450900", "url": "https://www.dmv.ca.gov/portal/field-office/sacramento/", "address": "4700 Broadway", "hours": "Mo,Tu,Th,Fr 08:00-17:00,We 09:00-17:00", "services": [ "Kiosk Available" ], "city": " Sacramento", "state": "CA", "zip": "95820", "name": "Sacramento County" }, "geometry": { "type": "Point", "coordinates": [ -121.4509, 38.5461 ] } },
{ "type": "Feature", "properties": { "place": "Sacramento-Florin IBC", "latitude": "38.49457", "longitude": "-121.43485", "url": "https://www.dmv.ca.gov/portal/field-office/sacramento-florin-ibc/", "address": "7226 Florin Mall Dr.", "hours": "Mo,Tu,Th,Fr 07:00-16:00,We 08:00-16:00", "services": [ ], "city": " Sacramento", "state": "CA", "zip": "95823", "name": "Sacramento County" }, "geometry": { "type": "Point", "coordinates": [ -121.43485, 38.49457 ] } },
{ "type": "Feature", "properties": { "place": "Sacramento South", "latitude": "38.476400", "longitude": "-121.426300", "url": "https://www.dmv.ca.gov/portal/field-office/sacramento-south/", "address": "7775 La Mancha Way", "hours": "Mo,Tu,Th,Fr 08:00-17:00,We 09:00-17:00", "services": [ "Kiosk Available" ], "city": " Sacramento", "state": "CA", "zip": "95823", "name": "Sacramento County" }, "geometry": { "type": "Point", "coordinates": [ -121.4263, 38.4764 ] } },
{ "type": "Feature", "properties": { "place": "Carmichael", "latitude": "38.625159", "longitude": "-121.343288", "url": "https://www.dmv.ca.gov/portal/field-office/carmichael/", "address": "5209 North Ave", "hours": "Mo,Tu,Th,Fr 08:00-17:00,We 09:00-17:00", "services": [ "Kiosk Available" ], "city": " Carmichael", "state": "CA", "zip": "95608", "name": "Sacramento County" }, "geometry": { "type": "Point", "coordinates": [ -121.343288, 38.625159 ] } },
{ "type": "Feature", "properties": { "place": "Oakland", "latitude": "37.840000", "longitude": "-122.259700", "url": "https://www.dmv.ca.gov/portal/field-office/oakland/", "address": "5300 Claremont Avenue", "hours": "Mo,Tu,Th,Fr 08:00-17:00,We 09:00-17:00", "services": [ "Kiosk Available" ], "city": " Oakland", "state": "CA", "zip": "94618", "name": "Alameda County" }, "geometry": { "type": "Point", "coordinates": [ -122.2597, 37.84 ] } },
{ "type": "Feature", "properties": { "place": "El Cerrito", "latitude": "37.916100", "longitude": "-122.310700", "url": "https://www.dmv.ca.gov/portal/field-office/el-cerrito/", "address": "6400 Manila Avenue", "hours": "Mo,Tu,Th,Fr 08:00-17:00,We 09:00-17:00", "services": [ ], "city": " El Cerrito", "state": "CA", "zip": "94530", "name": "Contra Costa County" }, "geometry": { "type": "Point", "coordinates": [ -122.3107, 37.9161 ] } },
{ "type": "Feature", "properties": { "place": "Hayward", "latitude": "37.659500", "longitude": "-122.087800", "url": "https://www.dmv.ca.gov/portal/field-office/hayward/", "address": "150 Jackson Street", "hours": "Mo,Tu,Th,Fr 08:00-17:00,We 09:00-17:00", "services": [ ], "city": " Hayward", "state": "CA", "zip": "94544", "name": "Alameda County" }, "geometry": { "type": "Point", "coordinates": [ -122.0878, 37.6595 ] } },
{ "type": "Feature", "properties": { "place": "Vallejo", "latitude": "38.117100", "longitude": "-122.251900", "url": "https://www.dmv.ca.gov/portal/field-office/vallejo/", "address": "200 Couch Street", "hours": "Mo,Tu,Th,Fr 08:00-17:00,We 09:00-17:00", "services": [ ], "city": " Vallejo", "state": "CA", "zip": "94590", "name": "Solano County" }, "geometry": { "type": "Point", "coordinates": [ -122.2519, 38.1171 ] } },
{ "type": "Feature", "properties": { "place": "Napa", "latitude": "38.255400", "longitude": "-122.273900", "url": "https://www.dmv.ca.gov/portal/field-office/napa/", "address": "2550 Napa Valley Corporate Drive", "hours": "Mo,Tu,Th,Fr 08:00-17:00,We 09:00-17:00", "services": [ ], "city": " Napa", "state": "CA", "zip": "94558", "name": "Napa County" }, "geometry": { "type": "Point", "coordinates": [ -122.2739, 38.2554 ] } },
{ "type": "Feature", "properties": { "place": "Fairfield IBC", "latitude": "38.23032", "longitude": "-122.13151", "url": "https://www.dmv.ca.gov/portal/field-office/fairfield-ibc/", "address": "4630 Westamerica Dr", "hours": "Mo,Tu,Th,Fr 07:00-16:00,We 08:00-16:00", "services": [ ], "city": " Fairfield", "state": "CA", "zip": "94534", "name": "Solano County" }, "geometry": { "type": "Point", "coordinates": [ -122.13151, 38.23032 ] } },
{ "type": "Feature", "properties": { "place": "Fairfield", "latitude": "38.246700", "longitude": "-122.073100", "url": "https://www.dmv.ca.gov/portal/field-office/fairfield/", "address": "160 Serrano Drive", "hours": "Mo,Tu,Th,Fr 08:00-17:00,We 09:00-17:00", "services": [ "Kiosk Available" ], "city": " Fairfield", "state": "CA", "zip": "94533", "name": "Solano County" }, "geometry": { "type": "Point", "coordinates": [ -122.0731, 38.2467 ] } },
{ "type": "Feature", "properties": { "place": "Tracy", "latitude": "37.762200", "longitude": "-121.465100", "url": "https://www.dmv.ca.gov/portal/field-office/tracy/", "address": "2785 Auto Plaza Drive", "hours": "Mo,Tu,Th,Fr 08:00-17:00,We 09:00-17:00", "services": [ "Kiosk Available" ], "city": " Tracy", "state": "CA", "zip": "95304", "name": "San Joaquin County" }, "geometry": { "type": "Point", "coordinates": [ -121.4651, 37.7622 ] } },
{ "type": "Feature", "properties": { "place": "Stockton", "latitude": "37.951300", "longitude": "-121.297600", "url": "https://www.dmv.ca.gov/portal/field-office/stockton/", "address": "55 South Lincoln Street", "hours": "Mo,Tu,Th,Fr 08:00-17:00,We 09:00-17:00", "services": [ "Kiosk Available" ], "city": " Stockton", "state": "CA", "zip": "95203", "name": "San Joaquin County" }, "geometry": { "type": "Point", "coordinates": [ -121.2976, 37.9513 ] } },
{ "type": "Feature", "properties": { "place": "Pleasanton Stoneridge", "latitude": "37.696870", "longitude": "-121.926060", "url": "https://www.dmv.ca.gov/portal/field-office/pleasanton-stoneridge/", "address": "2621 Stoneridge Mall", "hours": "Mo,Tu,Th,Fr 08:00-17:00,We 09:00-17:00", "services": [ ], "city": "", "state": "", "zip": null, "name": "Alameda County" }, "geometry": { "type": "Point", "coordinates": [ -121.92606, 37.69687 ] } },
{ "type": "Feature", "properties": { "place": "Pleasanton", "latitude": "37.680167", "longitude": "-121.905706", "url": "https://www.dmv.ca.gov/portal/field-office/pleasanton/", "address": "6300 W Las Positas Blvd", "hours": "Mo,Tu,Th,Fr 08:00-17:00,We 09:00-17:00", "services": [ "Kiosk Available" ], "city": " Pleasanton", "state": "CA", "zip": "94588", "name": "Alameda County" }, "geometry": { "type": "Point", "coordinates": [ -121.905706, 37.680167 ] } },
{ "type": "Feature", "properties": { "place": "Pittsburg", "latitude": "37.998800", "longitude": "-121.872600", "url": "https://www.dmv.ca.gov/portal/field-office/pittsburg/", "address": "1399 Buchanan Road", "hours": "Mo,Tu,Th,Fr 08:00-17:00,We 09:00-17:00", "services": [ "Kiosk Available" ], "city": " Pittsburg", "state": "CA", "zip": "94565", "name": "Contra Costa County" }, "geometry": { "type": "Point", "coordinates": [ -121.8726, 37.9988 ] } },
{ "type": "Feature", "properties": { "place": "Concord", "latitude": "37.974700", "longitude": "-122.056600", "url": "https://www.dmv.ca.gov/portal/field-office/concord/", "address": "2070 Diamond Boulevard", "hours": "Mo,Tu,Th,Fr 08:00-17:00,We 09:00-17:00", "services": [ "Kiosk Available" ], "city": " Concord", "state": "CA", "zip": "94520", "name": "Contra Costa County" }, "geometry": { "type": "Point", "coordinates": [ -122.0566, 37.9747 ] } },
{ "type": "Feature", "properties": { "place": "Santa Rosa", "latitude": "38.414974", "longitude": "-122.716768", "url": "https://www.dmv.ca.gov/portal/field-office/santa-rosa/", "address": "2570 Corby Ave", "hours": "Mo,Tu,Th,Fr 08:00-17:00,We 09:00-17:00", "services": [ "Kiosk Available" ], "city": " Santa Rosa", "state": "CA", "zip": "95407", "name": "Sonoma County" }, "geometry": { "type": "Point", "coordinates": [ -122.716768, 38.414974 ] } },
{ "type": "Feature", "properties": { "place": "Petaluma", "latitude": "38.257000", "longitude": "-122.645300", "url": "https://www.dmv.ca.gov/portal/field-office/petaluma/", "address": "715 - J Southpoint Boulevard", "hours": "Mo,Tu,Th,Fr 08:00-17:00,We 09:00-17:00", "services": [ ], "city": " Petaluma", "state": "CA", "zip": "94954", "name": "Sonoma County" }, "geometry": { "type": "Point", "coordinates": [ -122.6453, 38.257 ] } },
{ "type": "Feature", "properties": { "place": "Vacaville", "latitude": "38.378400", "longitude": "-121.944800", "url": "https://www.dmv.ca.gov/portal/field-office/vacaville/", "address": "621 Orange Drive", "hours": "Mo,Tu,Th,Fr 08:00-17:00,We 09:00-17:00", "services": [ ], "city": " Vacaville", "state": "CA", "zip": "95687", "name": "Solano County" }, "geometry": { "type": "Point", "coordinates": [ -121.9448, 38.3784 ] } },
{ "type": "Feature", "properties": { "place": "Santa Teresa", "latitude": "37.229700", "longitude": "-121.778500", "url": "https://www.dmv.ca.gov/portal/field-office/santa-teresa/", "address": "180 Martinvale Lane", "hours": "Mo,Tu,Th,Fr 08:00-17:00,We 09:00-17:00", "services": [ "Kiosk Available" ], "city": " San Jose", "state": "CA", "zip": "95119", "name": "Santa Clara County" }, "geometry": { "type": "Point", "coordinates": [ -121.7785, 37.2297 ] } },
{ "type": "Feature", "properties": { "place": "Clearlake", "latitude": "38.92956", "longitude": "-122.61626", "url": "https://www.dmv.ca.gov/portal/field-office/clearlake/", "address": "15930 Dam Rd", "hours": "Mo,Tu,Th,Fr 08:00-17:00,We 09:00-17:00", "services": [ ], "city": "", "state": "", "zip": null, "name": "Lake County" }, "geometry": { "type": "Point", "coordinates": [ -122.61626, 38.92956 ] } },
{ "type": "Feature", "properties": { "place": "Corte Madera", "latitude": "37.934700", "longitude": "-122.517700", "url": "https://www.dmv.ca.gov/portal/field-office/corte-madera/", "address": "75 Tamal Vista Boulevard", "hours": "Mo,Tu,Th,Fr 08:00-17:00,We 09:00-17:00", "services": [ "Kiosk Available" ], "city": " Corte Madera", "state": "CA", "zip": "94925", "name": "Marin County" }, "geometry": { "type": "Point", "coordinates": [ -122.5177, 37.9347 ] } },
{ "type": "Feature", "properties": { "place": "Novato", "latitude": "38.106600", "longitude": "-122.578700", "url": "https://www.dmv.ca.gov/portal/field-office/novato/", "address": "936 7th Street A", "hours": "Mo,Tu,Th,Fr 08:00-17:00,We 09:00-17:00", "services": [ ], "city": " Novato", "state": "CA", "zip": "94947", "name": "Marin County" }, "geometry": { "type": "Point", "coordinates": [ -122.5787, 38.1066 ] } },
{ "type": "Feature", "properties": { "place": "Gilroy", "latitude": "37.001700", "longitude": "-121.560600", "url": "https://www.dmv.ca.gov/portal/field-office/gilroy/", "address": "6984 Automall Parkway Suite A", "hours": "", "services": [ "Kiosk Available" ], "city": " Gilroy", "state": "CA", "zip": "95020", "name": "Santa Clara County" }, "geometry": { "type": "Point", "coordinates": [ -121.5606, 37.0017 ] } },
{ "type": "Feature", "properties": { "place": "Manteca", "latitude": "37.800600", "longitude": "-121.230300", "url": "https://www.dmv.ca.gov/portal/field-office/manteca/", "address": "955 Davis Street", "hours": "Mo,Tu,Th,Fr 08:00-17:00,We 09:00-17:00", "services": [ ], "city": " Manteca", "state": "CA", "zip": "95336", "name": "San Joaquin County" }, "geometry": { "type": "Point", "coordinates": [ -121.2303, 37.8006 ] } },
{ "type": "Feature", "properties": { "place": "Lodi", "latitude": "38.117900", "longitude": "-121.252200", "url": "https://www.dmv.ca.gov/portal/field-office/lodi/", "address": "1222 Pixley Parkway", "hours": "Mo,Tu,Th,Fr 08:00-17:00,We 09:00-17:00", "services": [ "Kiosk Available" ], "city": " Lodi", "state": "CA", "zip": "95240", "name": "San Joaquin County" }, "geometry": { "type": "Point", "coordinates": [ -121.2522, 38.1179 ] } },
{ "type": "Feature", "properties": { "place": "San Andreas", "latitude": "38.191088", "longitude": "-120.671187", "url": "https://www.dmv.ca.gov/portal/field-office/san-andreas/", "address": "745 Mountain Ranch Rd", "hours": "Tu,Th 08:00-17:00", "services": [ ], "city": " San Andreas", "state": "CA", "zip": "95249", "name": "Calaveras County" }, "geometry": { "type": "Point", "coordinates": [ -120.671187, 38.191088 ] } },
{ "type": "Feature", "properties": { "place": "Sonora", "latitude": "37.984400", "longitude": "-120.370200", "url": "https://www.dmv.ca.gov/portal/field-office/sonora/", "address": "885 Morning Star Drive", "hours": "Mo,Tu,Th,Fr 08:00-17:00,We 09:00-17:00", "services": [ ], "city": " Sonora", "state": "CA", "zip": "95370", "name": "Tuolumne County" }, "geometry": { "type": "Point", "coordinates": [ -120.3702, 37.9844 ] } },
{ "type": "Feature", "properties": { "place": "South Lake Tahoe", "latitude": "38.945748", "longitude": "-119.969890", "url": "https://www.dmv.ca.gov/portal/field-office/south-lake-tahoe/", "address": "3344 B Lake Tahoe Boulevard", "hours": "Mo,Tu,Th,Fr 08:00-17:00,We 09:00-17:00", "services": [ ], "city": " South Lake Tahoe", "state": "CA", "zip": "96150", "name": "El Dorado County" }, "geometry": { "type": "Point", "coordinates": [ -119.96989, 38.945748 ] } },
{ "type": "Feature", "properties": { "place": "Jackson", "latitude": "38.342199", "longitude": "-120.763620", "url": "https://www.dmv.ca.gov/portal/field-office/jackson/", "address": "201 Clinton Road", "hours": "Mo,Tu,Th,Fr 08:00-17:00,We 09:00-17:00", "services": [ ], "city": " Jackson", "state": "CA", "zip": "95642", "name": "Amador County" }, "geometry": { "type": "Point", "coordinates": [ -120.76362, 38.342199 ] } },
{ "type": "Feature", "properties": { "place": "Modesto", "latitude": "37.638400", "longitude": "-120.988800", "url": "https://www.dmv.ca.gov/portal/field-office/modesto/", "address": "124 Burney Street", "hours": "Mo,Tu,Th,Fr 08:00-17:00,We 09:00-17:00", "services": [ "Kiosk Available" ], "city": " Modesto", "state": "CA", "zip": "95354", "name": "Stanislaus County" }, "geometry": { "type": "Point", "coordinates": [ -120.9888, 37.6384 ] } },
{ "type": "Feature", "properties": { "place": "Turlock", "latitude": "37.521866", "longitude": "-120.839588", "url": "https://www.dmv.ca.gov/portal/field-office/turlock/", "address": "825 E Monte Vista Avenue", "hours": "Mo,Tu,Th,Fr 08:00-17:00,We 09:00-17:00", "services": [ "Kiosk Available" ], "city": " Turlock", "state": "CA", "zip": "95382", "name": "Stanislaus County" }, "geometry": { "type": "Point", "coordinates": [ -120.839588, 37.521866 ] } },
{ "type": "Feature", "properties": { "place": "Fort Bragg", "latitude": "39.437900", "longitude": "-123.804200", "url": "https://www.dmv.ca.gov/portal/field-office/fort-bragg/", "address": "410 S Franklin Street", "hours": "Mo,Fr 08:00-17:00,We 09:00-17:00", "services": [ ], "city": " Fort Bragg", "state": "CA", "zip": "95437", "name": "Mendocino County" }, "geometry": { "type": "Point", "coordinates": [ -123.8042, 39.4379 ] } },
{ "type": "Feature", "properties": { "place": "Ukiah", "latitude": "39.147600", "longitude": "-123.198800", "url": "https://www.dmv.ca.gov/portal/field-office/ukiah/", "address": "542 S Orchard Avenue", "hours": "Mo,Tu,Th,Fr 08:00-17:00,We 09:00-17:00", "services": [ ], "city": " Ukiah", "state": "CA", "zip": "95482", "name": "Mendocino County" }, "geometry": { "type": "Point", "coordinates": [ -123.1988, 39.1476 ] } },
{ "type": "Feature", "properties": { "place": "Lakeport", "latitude": "39.036613", "longitude": "-122.927301", "url": "https://www.dmv.ca.gov/portal/field-office/lakeport/", "address": "965 Parallel Drive", "hours": "Tu,Th 08:00-17:00", "services": [ ], "city": " Lakeport", "state": "CA", "zip": "95453", "name": "Lake County" }, "geometry": { "type": "Point", "coordinates": [ -122.927301, 39.036613 ] } },
{ "type": "Feature", "properties": { "place": "Garberville", "latitude": "40.120878", "longitude": "-123.800749", "url": "https://www.dmv.ca.gov/portal/field-office/garberville/", "address": "1180 Evergreen Rd", "hours": "Tu,Th 08:00-17:00", "services": [ ], "city": " Redway", "state": "CA", "zip": "95560", "name": "Humboldt County" }, "geometry": { "type": "Point", "coordinates": [ -123.800749, 40.120878 ] } },
{ "type": "Feature", "properties": { "place": "Eureka", "latitude": "40.779296", "longitude": "-124.190593", "url": "https://www.dmv.ca.gov/portal/field-office/eureka/", "address": "3300 Broadway St", "hours": "Mo,Tu,Th,Fr 08:00-17:00,We 09:00-17:00", "services": [ "Kiosk Available" ], "city": " Eureka", "state": "CA", "zip": "95501", "name": "Humboldt County" }, "geometry": { "type": "Point", "coordinates": [ -124.190593, 40.779296 ] } },
{ "type": "Feature", "properties": { "place": "Weaverville", "latitude": "40.725600", "longitude": "-122.933100", "url": "https://www.dmv.ca.gov/portal/field-office/weaverville/", "address": "1511 Main Street", "hours": "Tu,Th 08:00-17:00", "services": [ ], "city": " Weaverville", "state": "CA", "zip": "96093", "name": "Trinity County" }, "geometry": { "type": "Point", "coordinates": [ -122.9331, 40.7256 ] } },
{ "type": "Feature", "properties": { "place": "Yreka", "latitude": "41.702574", "longitude": "-122.645547", "url": "https://www.dmv.ca.gov/portal/field-office/yreka/", "address": "1848 Fort Jones Rd", "hours": "Mo,Fr 08:00-17:00,We 09:00-17:00", "services": [ ], "city": " Yreka", "state": "CA", "zip": "96097", "name": "Siskiyou County" }, "geometry": { "type": "Point", "coordinates": [ -122.645547, 41.702574 ] } },
{ "type": "Feature", "properties": { "place": "Auburn", "latitude": "38.907416", "longitude": "-121.083930", "url": "https://www.dmv.ca.gov/portal/field-office/auburn/", "address": "11722 Enterprise Dr", "hours": "Mo,Tu,Th,Fr 08:00-17:00,We 09:00-17:00", "services": [ ], "city": " Auburn", "state": "CA", "zip": "95603", "name": "Placer County" }, "geometry": { "type": "Point", "coordinates": [ -121.08393, 38.907416 ] } },
{ "type": "Feature", "properties": { "place": "Truckee", "latitude": "39.326110", "longitude": "-120.210732", "url": "https://www.dmv.ca.gov/portal/field-office/truckee/", "address": "11357 Donner Pass Road Suite I", "hours": "Mo,Tu,Th,Fr 08:00-17:00,We 09:00-17:00", "services": [ ], "city": " Truckee", "state": "CA", "zip": "96162", "name": "Nevada County" }, "geometry": { "type": "Point", "coordinates": [ -120.210732, 39.32611 ] } },
{ "type": "Feature", "properties": { "place": "Woodland", "latitude": "38.669155", "longitude": "-121.764585", "url": "https://www.dmv.ca.gov/portal/field-office/woodland/", "address": "825 East St", "hours": "Mo,Tu,Th,Fr 08:00-17:00,We 09:00-17:00", "services": [ ], "city": " Suite 306", "state": "CA", "zip": "95776", "name": "Yolo County" }, "geometry": { "type": "Point", "coordinates": [ -121.764585, 38.669155 ] } },
{ "type": "Feature", "properties": { "place": "Davis", "latitude": "38.549200", "longitude": "-121.726700", "url": "https://www.dmv.ca.gov/portal/field-office/davis/", "address": "505 Pole Line Road", "hours": "Mo,Tu,Th,Fr 08:00-17:00,We 09:00-17:00", "services": [ ], "city": " Davis", "state": "CA", "zip": "95616", "name": "Yolo County" }, "geometry": { "type": "Point", "coordinates": [ -121.7267, 38.5492 ] } },
{ "type": "Feature", "properties": { "place": "Colusa", "latitude": "39.203900", "longitude": "-122.004400", "url": "https://www.dmv.ca.gov/portal/field-office/colusa/", "address": "1025 Bridge St STE B", "hours": "Mo,Fr 08:00-17:00,We 09:00-17:00", "services": [ ], "city": " Colusa", "state": "CA", "zip": "95932", "name": "Colusa County" }, "geometry": { "type": "Point", "coordinates": [ -122.0044, 39.2039 ] } },
{ "type": "Feature", "properties": { "place": "Folsom", "latitude": "38.674100", "longitude": "-121.168100", "url": "https://www.dmv.ca.gov/portal/field-office/folsom/", "address": "323 E Bidwell A", "hours": "Mo,Tu,Th,Fr 08:00-17:00,We 09:00-17:00", "services": [ "Kiosk Available" ], "city": " Folsom", "state": "CA", "zip": "95630", "name": "Sacramento County" }, "geometry": { "type": "Point", "coordinates": [ -121.1681, 38.6741 ] } },
{ "type": "Feature", "properties": { "place": "Placerville", "latitude": "38.734700", "longitude": "-120.825100", "url": "https://www.dmv.ca.gov/portal/field-office/placerville/", "address": "2919 Cold Springs Road", "hours": "Mo,Tu,Th,Fr 08:00-17:00,We 09:00-17:00", "services": [ ], "city": " Placerville", "state": "CA", "zip": "95667", "name": "El Dorado County" }, "geometry": { "type": "Point", "coordinates": [ -120.8251, 38.7347 ] } },
{ "type": "Feature", "properties": { "place": "Rocklin", "latitude": "38.787400", "longitude": "-121.231600", "url": "https://www.dmv.ca.gov/portal/field-office/rocklin/", "address": "5245 South Grove", "hours": "Mo,Tu,Th,Fr 08:00-17:00,We 09:00-17:00", "services": [ "Kiosk Available" ], "city": " Rocklin", "state": "CA", "zip": "95677", "name": "Placer County" }, "geometry": { "type": "Point", "coordinates": [ -121.2316, 38.7874 ] } },
{ "type": "Feature", "properties": { "place": "Roseville", "latitude": "38.775600", "longitude": "-121.306100", "url": "https://www.dmv.ca.gov/portal/field-office/roseville/", "address": "7200 Galilee Road", "hours": "Mo,Tu,Th,Fr 08:00-17:00,We 09:00-17:00", "services": [ "Kiosk Available" ], "city": " Roseville", "state": "CA", "zip": "95678", "name": "Placer County" }, "geometry": { "type": "Point", "coordinates": [ -121.3061, 38.7756 ] } },
{ "type": "Feature", "properties": { "place": "Grass Valley", "latitude": "39.232100", "longitude": "-121.036010", "url": "https://www.dmv.ca.gov/portal/field-office/grass-valley/", "address": "890 Sutton Way", "hours": "Mo,Tu,Th,Fr 08:00-17:00,We 09:00-17:00", "services": [ ], "city": " Grass Valley", "state": "CA", "zip": "95945", "name": "Nevada County" }, "geometry": { "type": "Point", "coordinates": [ -121.03601, 39.2321 ] } },
{ "type": "Feature", "properties": { "place": "Willows", "latitude": "39.529404", "longitude": "-122.212047", "url": "https://www.dmv.ca.gov/portal/field-office/willows/", "address": "815 N Humboldt Avenue", "hours": "Tu,Th 08:00-17:00", "services": [ ], "city": " Willows", "state": "CA", "zip": "95988", "name": "Glenn County" }, "geometry": { "type": "Point", "coordinates": [ -122.212047, 39.529404 ] } },
{ "type": "Feature", "properties": { "place": "Chico", "latitude": "39.752800", "longitude": "-121.849100", "url": "https://www.dmv.ca.gov/portal/field-office/chico/", "address": "107 Parmac Rd #1", "hours": "Mo,Tu,Th,Fr 08:00-17:00,We 09:00-17:00", "services": [ "Kiosk Available" ], "city": " Chico", "state": "CA", "zip": "95926", "name": "Butte County" }, "geometry": { "type": "Point", "coordinates": [ -121.8491, 39.7528 ] } },
{ "type": "Feature", "properties": { "place": "Oroville", "latitude": "39.504455", "longitude": "-121.565331", "url": "https://www.dmv.ca.gov/portal/field-office/oroville/", "address": "775 Mitchell Avenue", "hours": "Mo,Tu,Th,Fr 08:00-17:00,We 09:00-17:00", "services": [ ], "city": " Oroville", "state": "CA", "zip": "95965", "name": "Butte County" }, "geometry": { "type": "Point", "coordinates": [ -121.565331, 39.504455 ] } },
{ "type": "Feature", "properties": { "place": "Quincy", "latitude": "39.935062", "longitude": "-120.882972", "url": "https://www.dmv.ca.gov/portal/field-office/quincy/", "address": "1953 E Main Street Suite 3", "hours": "Mo,Tu,Th,Fr 08:00-17:00,We 09:00-17:00", "services": [ ], "city": " Quincy", "state": "CA", "zip": "95971", "name": "Plumas County" }, "geometry": { "type": "Point", "coordinates": [ -120.882972, 39.935062 ] } },
{ "type": "Feature", "properties": { "place": "Susanville", "latitude": "40.412221", "longitude": "-120.638430", "url": "https://www.dmv.ca.gov/portal/field-office/susanville/", "address": "2615 Main Street", "hours": "Mo,Fr 08:00-17:00,We 09:00-17:00", "services": [ ], "city": " Susanville", "state": "CA", "zip": "96130", "name": "Lassen County" }, "geometry": { "type": "Point", "coordinates": [ -120.63843, 40.412221 ] } },
{ "type": "Feature", "properties": { "place": "Redding", "latitude": "40.575900", "longitude": "-122.380500", "url": "https://www.dmv.ca.gov/portal/field-office/redding/", "address": "2135 Civic Center Drive", "hours": "Mo,Tu,Th,Fr 08:00-17:00,We 09:00-17:00", "services": [ ], "city": " Redding", "state": "CA", "zip": "96001", "name": "Shasta County" }, "geometry": { "type": "Point", "coordinates": [ -122.3805, 40.5759 ] } },
{ "type": "Feature", "properties": { "place": "Alturas", "latitude": "41.491962", "longitude": "-120.549754", "url": "https://www.dmv.ca.gov/portal/field-office/alturas/", "address": "903 W C St", "hours": "Mo,Tu,Th,Fr 08:00-17:00,We 09:00-17:00", "services": [ ], "city": " Alturas", "state": "CA", "zip": "96101", "name": "Modoc County" }, "geometry": { "type": "Point", "coordinates": [ -120.549754, 41.491962 ] } },
{ "type": "Feature", "properties": { "place": "Fall River Mills", "latitude": "41.019824", "longitude": "-121.427987", "url": "https://www.dmv.ca.gov/portal/field-office/fall-river-mills/", "address": "43467 Hwy 299E", "hours": "Tu,Th 08:00-17:00", "services": [ ], "city": " Fall River Mills", "state": "CA", "zip": "96028", "name": "Shasta County" }, "geometry": { "type": "Point", "coordinates": [ -121.427987, 41.019824 ] } },
{ "type": "Feature", "properties": { "place": "Mt Shasta", "latitude": "41.310225", "longitude": "-122.317030", "url": "https://www.dmv.ca.gov/portal/field-office/mt-shasta/", "address": "154 Morgan Way", "hours": "Tu,Th 08:00-17:00", "services": [ ], "city": " Mt Shasta", "state": "CA", "zip": "96067", "name": "Siskiyou County" }, "geometry": { "type": "Point", "coordinates": [ -122.31703, 41.310225 ] } },
{ "type": "Feature", "properties": { "place": "Red Bluff", "latitude": "40.174800", "longitude": "-122.239000", "url": "https://www.dmv.ca.gov/portal/field-office/red-bluff/", "address": "675 Monroe Street", "hours": "Mo,Tu,Th,Fr 08:00-17:00,We 09:00-17:00", "services": [ ], "city": " Red Bluff", "state": "CA", "zip": "96080", "name": "Tehama County" }, "geometry": { "type": "Point", "coordinates": [ -122.239, 40.1748 ] } },
{ "type": "Feature", "properties": { "place": "Tulelake", "latitude": "41.956200", "longitude": "-121.477100", "url": "https://www.dmv.ca.gov/portal/field-office/tulelake/", "address": "399 Main Street", "hours": "", "services": [ ], "city": " Tulelake", "state": "CA", "zip": "96134", "name": "Siskiyou County" }, "geometry": { "type": "Point", "coordinates": [ -121.4771, 41.9562 ] } }
]
}
